{
"type": "FeatureCollection",
"name": "red_station",
"crs": { "type": "name", "properties": { "name": "urn:ogc:def:crs:OGC:1.3:CRS84" } },
"features": [
{ "type": "Feature", "properties": { "N02_001": "12", "N02_002": "4", "line": "城北線", "company": "伊予鉄道", "station": "赤十字病院前", "key": "城北線赤十字病院前" }, "geometry": { "type": "Point", "coordinates": [ 132.772379974298445, 33.848114999067818 ] } },
{ "type": "Feature", "properties": { "N02_001": "23", "N02_002": "5", "line": "沖縄都市モノレール線", "company": "沖縄都市モノレール", "station": "赤嶺", "key": "沖縄都市モノレール線赤嶺" }, "geometry": { "type": "Point", "coordinates": [ 127.660664261003447, 26.19326484858955 ] } },
{ "type": "Feature", "properties": { "N02_001": "12", "N02_002": "4", "line": "志摩線", "company": "近畿日本鉄道", "station": "志摩赤崎", "key": "志摩線志摩赤崎" }, "geometry": { "type": "Point", "coordinates": [ 136.84171096813435, 34.469822516346156 ] } },
{ "type": "Feature", "properties": { "N02_001": "12", "N02_002": "4", "line": "大阪線", "company": "近畿日本鉄道", "station": "赤目口", "key": "大阪線赤目口" }, "geometry": { "type": "Point", "coordinates": [ 136.073699993062093, 34.599335002101682 ] } },
{ "type": "Feature", "properties": { "N02_001": "12", "N02_002": "5", "line": "内部線", "company": "四日市あすなろう鉄道", "station": "赤堀", "key": "内部線赤堀" }, "geometry": { "type": "Point", "coordinates": [ 136.610434998809041, 34.959225000365464 ] } },
{ "type": "Feature", "properties": { "N02_001": "11", "N02_002": "2", "line": "三角線", "company": "九州旅客鉄道", "station": "赤瀬", "key": "三角線赤瀬" }, "geometry": { "type": "Point", "coordinates": [ 130.510141867348409, 32.65325534829315 ] } },
{ "type": "Feature", "properties": { "N02_001": "11", "N02_002": "2", "line": "鹿児島線", "company": "九州旅客鉄道", "station": "赤間", "key": "鹿児島線赤間" }, "geometry": { "type": "Point", "coordinates": [ 130.569589863242612, 33.808230001735588 ] } },
{ "type": "Feature", "properties": { "N02_001": "11", "N02_002": "2", "line": "豊肥線", "company": "九州旅客鉄道", "station": "赤水", "key": "豊肥線赤水" }, "geometry": { "type": "Point", "coordinates": [ 130.992879897783865, 32.913149992013636 ] } },
{ "type": "Feature", "properties": { "N02_001": "21", "N02_002": "4", "line": "宇品線", "company": "広島電鉄", "station": "日赤病院前", "key": "宇品線日赤病院前" }, "geometry": { "type": "Point", "coordinates": [ 132.455934967636665, 34.380739998165176 ] } },
{ "type": "Feature", "properties": { "N02_001": "12", "N02_002": "5", "line": "埼玉高速鉄道線", "company": "埼玉高速鉄道", "station": "赤羽岩淵", "key": "埼玉高速鉄道線赤羽岩淵" }, "geometry": { "type": "Point", "coordinates": [ 139.722110004090609, 35.783355007675361 ] } },
{ "type": "Feature", "properties": { "N02_001": "12", "N02_002": "5", "line": "南リアス線", "company": "三陸鉄道", "station": "陸前赤崎", "key": "南リアス線陸前赤崎" }, "geometry": { "type": "Point", "coordinates": [ 141.741055000687624, 39.06852000050803 ] } },
{ "type": "Feature", "properties": { "N02_001": "12", "N02_002": "5", "line": "フラワー長井線", "company": "山形鉄道", "station": "赤湯", "key": "フラワー長井線赤湯" }, "geometry": { "type": "Point", "coordinates": [ 140.149009998617487, 38.047230000130746 ] } },
{ "type": "Feature", "properties": { "N02_001": "11", "N02_002": "2", "line": "牟岐線", "company": "四国旅客鉄道", "station": "阿波赤石", "key": "牟岐線阿波赤石" }, "geometry": { "type": "Point", "coordinates": [ 134.605864996341722, 33.981704999894376 ] } },
{ "type": "Feature", "properties": { "N02_001": "11", "N02_002": "2", "line": "予讃線", "company": "四国旅客鉄道", "station": "赤星", "key": "予讃線赤星" }, "geometry": { "type": "Point", "coordinates": [ 133.456504985227866, 33.966804999620791 ] } },
{ "type": "Feature", "properties": { "N02_001": "12", "N02_002": "4", "line": "別所線", "company": "上田電鉄", "station": "赤坂上", "key": "別所線赤坂上" }, "geometry": { "type": "Point", "coordinates": [ 138.227169999543293, 36.391345000655384 ] } },
{ "type": "Feature", "properties": { "N02_001": "12", "N02_002": "4", "line": "上毛線", "company": "上毛電気鉄道", "station": "赤城", "key": "上毛線赤城" }, "geometry": { "type": "Point", "coordinates": [ 139.276779999424946, 36.425620000530955 ] } },
{ "type": "Feature", "properties": { "N02_001": "12", "N02_002": "4", "line": "上毛線", "company": "上毛電気鉄道", "station": "赤坂", "key": "上毛線赤坂" }, "geometry": { "type": "Point", "coordinates": [ 139.117339999124823, 36.397235000243654 ] } },
{ "type": "Feature", "properties": { "N02_001": "11", "N02_002": "2", "line": "山陰線", "company": "西日本旅客鉄道", "station": "赤碕", "key": "山陰線赤碕" }, "geometry": { "type": "Point", "coordinates": [ 133.63450498763865, 35.512315001648972 ] } },
{ "type": "Feature", "properties": { "N02_001": "11", "N02_002": "2", "line": "山陽線", "company": "西日本旅客鉄道", "station": "備後赤坂", "key": "山陽線備後赤坂" }, "geometry": { "type": "Point", "coordinates": [ 133.306019316356185, 34.472206805303614 ] } },
{ "type": "Feature", "properties": { "N02_001": "11", "N02_002": "2", "line": "赤穂線", "company": "西日本旅客鉄道", "station": "播州赤穂", "key": "赤穂線播州赤穂" }, "geometry": { "type": "Point", "coordinates": [ 134.393049991893946, 34.75663001147911 ] } },
{ "type": "Feature", "properties": { "N02_001": "21", "N02_002": "4", "line": "赤迫支線", "company": "長崎電気軌道", "station": "赤迫", "key": "赤迫支線赤迫" }, "geometry": { "type": "Point", "coordinates": [ 129.857389777546246, 32.793984982002044 ] } },
{ "type": "Feature", "properties": { "N02_001": "12", "N02_002": "5", "line": "越美南線", "company": "長良川鉄道", "station": "赤池", "key": "越美南線赤池" }, "geometry": { "type": "Point", "coordinates": [ 136.961164998995599, 35.671795000120746 ] } },
{ "type": "Feature", "properties": { "N02_001": "12", "N02_002": "5", "line": "阿佐線", "company": "土佐くろしお鉄道", "station": "赤野", "key": "阿佐線赤野" }, "geometry": { "type": "Point", "coordinates": [ 133.824789990648924, 33.516030001978727 ] } },
{ "type": "Feature", "properties": { "N02_001": "11", "N02_002": "2", "line": "東海道線", "company": "東海旅客鉄道", "station": "美濃赤坂", "key": "東海道線美濃赤坂" }, "geometry": { "type": "Point", "coordinates": [ 136.582195000061063, 35.386605000025 ] } },
{ "type": "Feature", "properties": { "N02_001": "11", "N02_002": "2", "line": "飯田線", "company": "東海旅客鉄道", "station": "赤木", "key": "飯田線赤木" }, "geometry": { "type": "Point", "coordinates": [ 137.943954999205062, 35.777930000143215 ] } },
{ "type": "Feature", "properties": { "N02_001": "12", "N02_002": "4", "line": "3号線銀座線", "company": "東京地下鉄", "station": "赤坂見附", "key": "3号線銀座線赤坂見附" }, "geometry": { "type": "Point", "coordinates": [ 139.737345198927642, 35.676851017574585 ] } },
{ "type": "Feature", "properties": { "N02_001": "12", "N02_002": "4", "line": "4号線丸ノ内線", "company": "東京地下鉄", "station": "赤坂見附", "key": "4号線丸ノ内線赤坂見附" }, "geometry": { "type": "Point", "coordinates": [ 139.737345198927642, 35.676851017574585 ] } },
{ "type": "Feature", "properties": { "N02_001": "12", "N02_002": "4", "line": "7号線南北線", "company": "東京地下鉄", "station": "赤羽岩淵", "key": "7号線南北線赤羽岩淵" }, "geometry": { "type": "Point", "coordinates": [ 139.722110004090609, 35.783355007675361 ] } },
{ "type": "Feature", "properties": { "N02_001": "12", "N02_002": "4", "line": "8号線有楽町線", "company": "東京地下鉄", "station": "地下鉄赤塚", "key": "8号線有楽町線地下鉄赤塚" }, "geometry": { "type": "Point", "coordinates": [ 139.644000449571223, 35.769980502775127 ] } },
{ "type": "Feature", "properties": { "N02_001": "12", "N02_002": "4", "line": "9号線千代田線", "company": "東京地下鉄", "station": "赤坂", "key": "9号線千代田線赤坂" }, "geometry": { "type": "Point", "coordinates": [ 139.73640906929171, 35.672100047412457 ] } },
{ "type": "Feature", "properties": { "N02_001": "12", "N02_002": "3", "line": "12号線大江戸線", "company": "東京都", "station": "赤羽橋", "key": "12号線大江戸線赤羽橋" }, "geometry": { "type": "Point", "coordinates": [ 139.74419500069763, 35.654970002511959 ] } },
{ "type": "Feature", "properties": { "N02_001": "11", "N02_002": "2", "line": "越後線", "company": "東日本旅客鉄道", "station": "越後赤塚", "key": "越後線越後赤塚" }, "geometry": { "type": "Point", "coordinates": [ 138.90817499417301, 37.8160000012304 ] } },
{ "type": "Feature", "properties": { "N02_001": "11", "N02_002": "2", "line": "奥羽線", "company": "東日本旅客鉄道", "station": "赤岩", "key": "奥羽線赤岩" }, "geometry": { "type": "Point", "coordinates": [ 140.334990000381993, 37.805715000865668 ] } },
{ "type": "Feature", "properties": { "N02_001": "11", "N02_002": "2", "line": "奥羽線", "company": "東日本旅客鉄道", "station": "赤湯", "key": "奥羽線赤湯" }, "geometry": { "type": "Point", "coordinates": [ 140.149009998617487, 38.047230000130746 ] } },
{ "type": "Feature", "properties": { "N02_001": "11", "N02_002": "2", "line": "花輪線", "company": "東日本旅客鉄道", "station": "赤坂田", "key": "花輪線赤坂田" }, "geometry": { "type": "Point", "coordinates": [ 141.003944998739684, 40.048510000522199 ] } },
{ "type": "Feature", "properties": { "N02_001": "11", "N02_002": "2", "line": "五能線", "company": "東日本旅客鉄道", "station": "陸奥赤石", "key": "五能線陸奥赤石" }, "geometry": { "type": "Point", "coordinates": [ 140.16244999819699, 40.761825000556968 ] } },
{ "type": "Feature", "properties": { "N02_001": "11", "N02_002": "2", "line": "常磐線", "company": "東日本旅客鉄道", "station": "赤塚", "key": "常磐線赤塚" }, "geometry": { "type": "Point", "coordinates": [ 140.415159993836539, 36.381755013970889 ] } },
{ "type": "Feature", "properties": { "N02_001": "11", "N02_002": "2", "line": "赤羽線（埼京線）", "company": "東日本旅客鉄道", "station": "赤羽", "key": "赤羽線（埼京線）赤羽" }, "geometry": { "type": "Point", "coordinates": [ 139.720837653788095, 35.777717746352465 ] } },
{ "type": "Feature", "properties": { "N02_001": "11", "N02_002": "2", "line": "仙石線", "company": "東日本旅客鉄道", "station": "陸前赤井", "key": "仙石線陸前赤井" }, "geometry": { "type": "Point", "coordinates": [ 141.238994925329024, 38.432415259054274 ] } },
{ "type": "Feature", "properties": { "N02_001": "11", "N02_002": "2", "line": "大湊線", "company": "東日本旅客鉄道", "station": "赤川", "key": "大湊線赤川" }, "geometry": { "type": "Point", "coordinates": [ 141.209230001121199, 41.267945000397205 ] } },
{ "type": "Feature", "properties": { "N02_001": "11", "N02_002": "2", "line": "田沢湖線", "company": "東日本旅客鉄道", "station": "赤渕", "key": "田沢湖線赤渕" }, "geometry": { "type": "Point", "coordinates": [ 140.907234998797378, 39.685090002456839 ] } },
{ "type": "Feature", "properties": { "N02_001": "11", "N02_002": "2", "line": "東北線（埼京線）", "company": "東日本旅客鉄道", "station": "赤羽", "key": "東北線（埼京線）赤羽" }, "geometry": { "type": "Point", "coordinates": [ 139.720837653788095, 35.777717746352465 ] } },
{ "type": "Feature", "properties": { "N02_001": "11", "N02_002": "2", "line": "東北線（埼京線）", "company": "東日本旅客鉄道", "station": "北赤羽", "key": "東北線（埼京線）北赤羽" }, "geometry": { "type": "Point", "coordinates": [ 139.705771886207117, 35.787005168804576 ] } },
{ "type": "Feature", "properties": { "N02_001": "11", "N02_002": "2", "line": "東北線", "company": "東日本旅客鉄道", "station": "赤羽", "key": "東北線赤羽" }, "geometry": { "type": "Point", "coordinates": [ 139.721217389288455, 35.777607126129652 ] } },
{ "type": "Feature", "properties": { "N02_001": "11", "N02_002": "2", "line": "磐越東線", "company": "東日本旅客鉄道", "station": "赤井", "key": "磐越東線赤井" }, "geometry": { "type": "Point", "coordinates": [ 140.866335001173894, 37.080640000288589 ] } },
{ "type": "Feature", "properties": { "N02_001": "11", "N02_002": "2", "line": "陸羽東線", "company": "東日本旅客鉄道", "station": "赤倉温泉", "key": "陸羽東線赤倉温泉" }, "geometry": { "type": "Point", "coordinates": [ 140.553605778332297, 38.730505531414387 ] } },
{ "type": "Feature", "properties": { "N02_001": "12", "N02_002": "4", "line": "桐生線", "company": "東武鉄道", "station": "赤城", "key": "桐生線赤城" }, "geometry": { "type": "Point", "coordinates": [ 139.276779999424946, 36.425620000530955 ] } },
{ "type": "Feature", "properties": { "N02_001": "12", "N02_002": "4", "line": "東上本線", "company": "東武鉄道", "station": "下赤塚", "key": "東上本線下赤塚" }, "geometry": { "type": "Point", "coordinates": [ 139.644850001174206, 35.770485001154931 ] } },
{ "type": "Feature", "properties": { "N02_001": "12", "N02_002": "4", "line": "大月線", "company": "富士急行", "station": "赤坂", "key": "大月線赤坂" }, "geometry": { "type": "Point", "coordinates": [ 138.916074999095457, 35.566045000336537 ] } },
{ "type": "Feature", "properties": { "N02_001": "12", "N02_002": "4", "line": "福武線", "company": "福井鉄道", "station": "赤十字前", "key": "福武線赤十字前" }, "geometry": { "type": "Point", "coordinates": [ 136.216649999388466, 36.048714999980888 ] } },
{ "type": "Feature", "properties": { "N02_001": "12", "N02_002": "3", "line": "1号線(空港線)", "company": "福岡市", "station": "赤坂", "key": "1号線(空港線)赤坂" }, "geometry": { "type": "Point", "coordinates": [ 130.390514845550911, 33.589024989338014 ] } },
{ "type": "Feature", "properties": { "N02_001": "12", "N02_002": "5", "line": "伊田線", "company": "平成筑豊鉄道", "station": "赤池", "key": "伊田線赤池" }, "geometry": { "type": "Point", "coordinates": [ 130.768649884381801, 33.692104992148423 ] } },
{ "type": "Feature", "properties": { "N02_001": "12", "N02_002": "5", "line": "田川線", "company": "平成筑豊鉄道", "station": "赤", "key": "田川線赤" }, "geometry": { "type": "Point", "coordinates": [ 130.871664890411466, 33.61845499226245 ] } },
{ "type": "Feature", "properties": { "N02_001": "21", "N02_002": "4", "line": "東田本線", "company": "豊橋鉄道", "station": "赤岩口", "key": "東田本線赤岩口" }, "geometry": { "type": "Point", "coordinates": [ 137.429119999813764, 34.763400000293757 ] } },
{ "type": "Feature", "properties": { "N02_001": "11", "N02_002": "2", "line": "根室線", "company": "北海道旅客鉄道", "station": "赤平", "key": "根室線赤平" }, "geometry": { "type": "Point", "coordinates": [ 142.048660015607169, 43.554880008459236 ] } },
{ "type": "Feature", "properties": { "N02_001": "11", "N02_002": "2", "line": "函館線", "company": "北海道旅客鉄道", "station": "赤井川", "key": "函館線赤井川" }, "geometry": { "type": "Point", "coordinates": [ 140.642725010274575, 42.003230010323257 ] } },
{ "type": "Feature", "properties": { "N02_001": "12", "N02_002": "3", "line": "1号線東山線", "company": "名古屋市", "station": "中村日赤", "key": "1号線東山線中村日赤" }, "geometry": { "type": "Point", "coordinates": [ 136.862294998759893, 35.172700000312595 ] } },
{ "type": "Feature", "properties": { "N02_001": "12", "N02_002": "3", "line": "3号線鶴舞線", "company": "名古屋市", "station": "赤池", "key": "3号線鶴舞線赤池" }, "geometry": { "type": "Point", "coordinates": [ 137.018204999478684, 35.121035000622093 ] } },
{ "type": "Feature", "properties": { "N02_001": "12", "N02_002": "3", "line": "4号線名城線", "company": "名古屋市", "station": "八事日赤", "key": "4号線名城線八事日赤" }, "geometry": { "type": "Point", "coordinates": [ 136.964894321169936, 35.144644604028137 ] } },
{ "type": "Feature", "properties": { "N02_001": "12", "N02_002": "4", "line": "豊田線", "company": "名古屋鉄道", "station": "赤池", "key": "豊田線赤池" }, "geometry": { "type": "Point", "coordinates": [ 137.018204999478684, 35.121035000622093 ] } },
{ "type": "Feature", "properties": { "N02_001": "12", "N02_002": "4", "line": "名古屋本線", "company": "名古屋鉄道", "station": "名電赤坂", "key": "名古屋本線名電赤坂" }, "geometry": { "type": "Point", "coordinates": [ 137.311164657646657, 34.859334740226487 ] } },
{ "type": "Feature", "properties": { "N02_001": "24", "N02_002": "3", "line": "日暮里・舎人線", "company": "東京都", "station": "赤土小学校前", "key": "日暮里・舎人線赤土小学校前" }, "geometry": { "type": "Point", "coordinates": [ 139.769129999901054, 35.743060000010622 ] } },
{ "type": "Feature", "properties": { "N02_001": "12", "N02_002": "4", "line": "養老線", "company": "養老鉄道", "station": "東赤坂", "key": "養老線東赤坂" }, "geometry": { "type": "Point", "coordinates": [ 136.600979499329583, 35.394158499991569 ] } }
]
}
